sim_time,alt,roll,pitch,yaw,status,phase
0.0949999988079071,0.0,-0.00014545164594892412,-0.0011243553599342704,-0.00012613373110070825,0,IDLE
0.19499999284744263,0.2747722566127777,-0.0013363838661462069,-0.0015975036658346653,0.0006560005713254213,1,BOOST
0.29499998688697815,0.6630502939224243,-0.003194924211129546,2.195032539020758e-05,0.0006365783629007638,1,BOOST
0.39500001072883606,1.288148045539856,-0.002282005501911044,-0.001521000755019486,0.0020939339883625507,1,BOOST
0.4950000047683716,1.9941855669021606,-0.0032971592154353857,-0.0010188334854319692,0.00045633901027031243,1,BOOST
0.5950000286102295,2.911404609680176,-0.008973379619419575,-0.0008140059653669596,-0.0001548923901282251,1,BOOST
0.6949999928474426,4.108480453491211,-0.024389445781707764,-0.00013322853192221373,-0.00027668947586789727,1,BOOST
0.7950000166893005,5.680488586425781,-0.05839579552412033,0.0033096761908382177,0.0009497584542259574,1,BOOST
0.8949999809265137,7.605013847351074,-0.12358194589614868,0.003980560228228569,0.0031343018636107445,1,BOOST
0.9950000047683716,10.10271167755127,-0.2217092216014862,0.004756418522447348,0.003704455215483904,1,BOOST
1.0950000286102295,13.320615768432617,-0.3516768515110016,0.0068049198016524315,0.0031642341054975986,1,BOOST
1.1950000524520874,17.311786651611328,-0.5070783495903015,0.006152843590825796,0.004273209720849991,1,BOOST
1.2949999570846558,22.33031463623047,-0.6708204746246338,0.0065175737254321575,0.004521569237112999,1,BOOST
1.3949999809265137,28.715160369873047,-0.8205961585044861,0.007345554418861866,0.002603474073112011,1,BOOST
1.4950000047683716,36.58138656616211,-0.9293078780174255,0.005512948147952557,0.0016024978831410408,1,BOOST
1.5950000286102295,45.62764358520508,-0.9793761372566223,0.005284101702272892,0.002940376987680793,1,BOOST
1.6950000524520874,56.188148498535156,-0.9768567681312561,0.004627235699445009,0.0035246119368821383,1,BOOST
1.7949999570846558,68.19495391845703,-0.9453624486923218,0.004476829897612333,0.0008273362764157355,1,BOOST
1.8949999809265137,81.5083236694336,-0.9241994023323059,0.004029504489153624,0.0017564126756042242,1,BOOST
1.9950000047683716,95.74341583251953,-0.9492188096046448,0.0048707337118685246,0.0023440865334123373,1,BOOST
2.0950000286102295,110.96582794189453,-1.0287781953811646,0.004500362556427717,0.003193461336195469,1,BOOST
2.194999933242798,126.8472900390625,-1.134976863861084,0.002705581719055772,0.004407025407999754,1,BOOST
2.2950000762939453,143.51742553710938,-1.22490656375885,0.0032990765757858753,0.006257625296711922,1,BOOST
2.3949999809265137,160.70553588867188,-1.2674058675765991,0.003742809873074293,0.004203681834042072,1,BOOST
2.494999885559082,178.41152954101562,-1.2605749368667603,0.00376745848916471,0.0034980790223926306,1,BOOST
2.5950000286102295,196.58535766601562,-1.2519928216934204,0.003653158200904727,0.0023143484722822905,1,BOOST
2.694999933242798,215.41920471191406,-1.2803337574005127,0.0019081351347267628,0.0027008927427232265,1,BOOST
2.7950000762939453,234.59283447265625,-1.3493597507476807,0.0028856468852609396,0.004048248287290335,1,BOOST
2.8949999809265137,254.2343292236328,-1.422934889793396,0.004307552706450224,0.006542680785059929,1,BOOST
2.994999885559082,274.16302490234375,-1.4599052667617798,0.003876748029142618,0.0075549716129899025,1,BOOST
3.0950000286102295,294.4640197753906,-1.4626483917236328,0.0006944633205421269,0.00805113185197115,1,BOOST
3.194999933242798,315.4404602050781,-1.465796709060669,-0.0010904585942626,0.0075804260559380054,1,BOOST
3.2950000762939453,336.7425231933594,-1.5045205354690552,-0.0006713384645991027,0.007233323063701391,1,BOOST
3.3949999809265137,358.4688415527344,-1.5663894414901733,-0.001613738713786006,0.008373538963496685,1,BOOST
3.494999885559082,380.52911376953125,-1.6077524423599243,-0.00208626058883965,0.00817181821912527,1,BOOST
3.5950000286102295,402.9600830078125,-1.6175748109817505,-0.0015504431212320924,0.009622575715184212,1,BOOST
3.694999933242798,425.7162170410156,-1.6304676532745361,-0.001450207899324596,0.008999782614409924,1,BOOST
3.7950000762939453,448.7884826660156,-1.6698698997497559,-0.0014289583778008819,0.009194514714181423,1,BOOST
3.8949999809265137,472.1658630371094,-1.7199177742004395,-0.0010112968739122152,0.008021444082260132,1,BOOST
3.994999885559082,495.8632507324219,-1.7515349388122559,-0.001701532513834536,0.008292644284665585,1,BOOST
4.09499979019165,519.9057006835938,-1.7636892795562744,-0.0010949068237096071,0.008390313014388084,1,BOOST
4.195000171661377,544.1991577148438,-1.7859604358673096,-0.0010094058234244585,0.0062336428090929985,1,BOOST
4.295000076293945,568.6796875,-1.8263435363769531,0.0002613251272123307,0.005006350111216307,1,BOOST
4.394999980926514,593.1837768554688,-1.8644704818725586,-0.002394753508269787,0.004780065733939409,1,BOOST
4.494999885559082,617.9647216796875,-1.8867405652999878,-0.001765633700415492,0.0046071503311395645,1,BOOST
4.59499979019165,643.0233764648438,-1.9044299125671387,-0.004406418651342392,0.002849603770300746,1,BOOST
4.695000171661377,668.09814453125,-1.9361155033111572,-0.005001598969101906,0.003944064024835825,1,BOOST
4.795000076293945,693.1217041015625,-1.9757009744644165,-0.0038084841798990965,0.002317232545465231,1,BOOST
4.894999980926514,718.1295776367188,-2.007387399673462,-0.004728727042675018,0.0025144475512206554,1,BOOST
4.994999885559082,743.0882568359375,-2.0308303833007812,-0.00600150553509593,0.00392110925167799,1,BOOST
5.09499979019165,768.1044311523438,-2.058960437774658,-0.008176805451512337,0.0036492757499217987,1,BOOST
5.195000171661377,792.8988037109375,-2.093766212463379,-0.008444279432296753,0.002939620753750205,1,BOOST
5.295000076293945,817.6007080078125,-2.126391887664795,-0.009641245007514954,0.002390308305621147,1,BOOST
5.394999980926514,842.1292724609375,-2.1530792713165283,-0.007125703152269125,0.0031551760621368885,1,BOOST
5.494999885559082,866.53564453125,-2.1765918731689453,-0.007696676999330521,0.0034927360247820616,1,BOOST
5.59499979019165,890.7969360351562,-2.209458112716675,-0.009041737765073776,0.004755857400596142,1,BOOST
5.695000171661377,914.6838989257812,-2.2444651126861572,-0.008963893167674541,0.004469478968530893,1,BOOST
5.795000076293945,938.5010986328125,-2.277101993560791,-0.010440820828080177,0.005593463312834501,1,BOOST
5.894999980926514,962.0346069335938,-2.304595708847046,-0.011885732412338257,0.004269384313374758,1,BOOST
5.994999885559082,985.2612915039062,-2.335843324661255,-0.012582039460539818,0.0026411195285618305,1,BOOST
6.09499979019165,1008.2113037109375,-2.371919870376587,-0.011731095612049103,0.003666526870802045,1,BOOST
6.195000171661377,1030.8958740234375,-2.4073567390441895,-0.012246320955455303,0.0046676150523126125,1,BOOST
6.295000076293945,1053.423828125,-2.440032720565796,-0.012109591625630856,0.0035255143884569407,1,BOOST
6.394999980926514,1075.28759765625,-2.4677069187164307,-0.014138001948595047,0.004153696820139885,1,BOOST
6.494999885559082,1096.99462890625,-2.499626636505127,-0.014380404725670815,0.003931512124836445,1,BOOST
6.59499979019165,1118.349365234375,-2.535550355911255,-0.017063450068235397,0.007590859197080135,1,BOOST
6.695000171661377,1139.5875244140625,-2.574333429336548,-0.01731455698609352,0.009448414668440819,1,BOOST
6.795000076293945,1160.2156982421875,-2.6066107749938965,-0.01647026464343071,0.008809199556708336,1,BOOST
6.894999980926514,1180.69140625,-2.640188694000244,-0.017834190279245377,0.01021080557256937,1,BOOST
6.994999885559082,1200.983154296875,-2.6755638122558594,-0.019693413749337196,0.00997553113847971,1,BOOST
7.09499979019165,1220.899658203125,-2.713881254196167,-0.019528333097696304,0.0095693189650774,1,BOOST
7.195000171661377,1240.5294189453125,-2.7555959224700928,-0.022192874923348427,0.010854437947273254,1,BOOST
7.295000076293945,1259.90576171875,-2.7929470539093018,-0.022451307624578476,0.01020848099142313,1,BOOST
7.394999980926514,1278.9818115234375,-2.8285930156707764,-0.023561745882034302,0.00901611428707838,1,BOOST
7.494999885559082,1297.86572265625,-2.8636908531188965,-0.02339239977300167,0.009854053147137165,1,BOOST
7.59499979019165,1316.4522705078125,-2.903345823287964,-0.02500138059258461,0.008810712024569511,1,BOOST
7.695000171661377,1334.7437744140625,-2.9459078311920166,-0.025520674884319305,0.007973033003509045,1,BOOST
7.795000076293945,1353.11328125,-2.98486328125,-0.027829013764858246,0.00912727415561676,1,BOOST
7.894999980926514,1371.157958984375,-3.0213701725006104,-0.028747452422976494,0.007707370910793543,1,BOOST
7.994999885559082,1389.0196533203125,-3.0589756965637207,-0.028903700411319733,0.0063511282205581665,1,BOOST
8.095000267028809,1406.6533203125,-3.100694417953491,-0.031141294166445732,0.006844300776720047,1,BOOST
8.194999694824219,1424.1104736328125,-3.144174814224243,-0.03238212689757347,0.007579360622912645,1,BOOST
8.295000076293945,1441.576171875,-3.189784288406372,-0.03535138815641403,0.00666173966601491,1,BOOST
8.395000457763672,1458.6884765625,-3.2305660247802734,-0.03643721714615822,0.006605740170925856,3,COAST
8.494999885559082,1475.58251953125,-3.2689602375030518,-0.03680235147476196,0.008072800934314728,7,COAST
8.595000267028809,1492.48388671875,-3.3110909461975098,-0.03886337950825691,0.0071079614572227,7,COAST
8.694999694824219,1509.1510009765625,-3.3584043979644775,-0.03883622586727142,0.006075708661228418,7,COAST
8.795000076293945,1525.7911376953125,-3.403925895690918,-0.03814876079559326,0.006941057741641998,7,COAST
8.895000457763672,1542.312255859375,-3.4467971324920654,-0.038132354617118835,0.007320242002606392,7,COAST
8.994999885559082,1558.638427734375,-3.491114854812622,-0.040789030492305756,0.009425980038940907,7,COAST
9.095000267028809,1574.8271484375,-3.537301778793335,-0.04006986320018768,0.011633767746388912,7,COAST
9.194999694824219,1590.954833984375,-3.5841379165649414,-0.04179264232516289,0.009519536979496479,7,COAST
9.295000076293945,1607.0589599609375,-3.6323506832122803,-0.043073832988739014,0.010528447106480598,7,COAST
9.395000457763672,1623.101806640625,-3.6840124130249023,-0.04262419790029526,0.009296858683228493,7,COAST
9.494999885559082,1638.99072265625,-3.734387159347534,-0.04387805238366127,0.011604187078773975,7,COAST
9.595000267028809,1654.7476806640625,-3.784128427505493,-0.04390697926282883,0.012597129680216312,7,COAST
9.694999694824219,1670.46728515625,-3.8312225341796875,-0.045247357338666916,0.012819847092032433,7,COAST
9.795000076293945,1686.2161865234375,-3.8801796436309814,-0.04685480147600174,0.013084420002996922,7,COAST
9.895000457763672,1701.7879638671875,-3.931769847869873,-0.04574662819504738,0.012356766499578953,7,COAST
9.994999885559082,1717.45849609375,-3.9829463958740234,-0.0465790294110775,0.01028336863964796,7,COAST
10.095000267028809,1732.926025390625,-4.037245273590088,-0.04941679909825325,0.011110609397292137,7,COAST
10.194999694824219,1748.3349609375,-4.092593193054199,-0.05049756169319153,0.011843807063996792,7,COAST
10.295000076293945,1763.523681640625,-4.146696090698242,-0.0515543669462204,0.012570328079164028,7,COAST
10.395000457763672,1778.638671875,-4.199018955230713,-0.05270971730351448,0.011271423660218716,7,COAST
10.494999885559082,1793.8790283203125,-4.252527713775635,-0.05596916005015373,0.011962663382291794,7,COAST
10.595000267028809,1809.010986328125,-4.306402683258057,-0.05736060440540314,0.012041144073009491,7,COAST
10.694999694824219,1824.210693359375,-4.363533973693848,-0.057617101818323135,0.013115455396473408,7,COAST
10.795000076293945,1839.2408447265625,-4.423271179199219,-0.06239774078130722,0.01117350347340107,7,COAST
10.895000457763672,1854.212646484375,-4.482550621032715,-0.0640236884355545,0.012284915894269943,7,COAST
10.994999885559082,1869.0802001953125,-4.542911052703857,-0.06537802517414093,0.012573299929499626,7,COAST
11.095000267028809,1883.8721923828125,-4.60272216796875,-0.06418310850858688,0.012969993986189365,7,COAST
11.194999694824219,1898.6295166015625,-4.659798622131348,-0.06785900890827179,0.013885218650102615,7,COAST
11.295000076293945,1913.2696533203125,-4.718151569366455,-0.07171424478292465,0.013789630495011806,7,COAST
11.395000457763672,1927.9139404296875,-4.779938697814941,-0.0762426108121872,0.013813971541821957,7,COAST
11.494999885559082,1942.4393310546875,-4.8447065353393555,-0.07595846056938171,0.013199323788285255,7,COAST
11.595000267028809,1956.8841552734375,-4.912256717681885,-0.07580860704183578,0.012615134008228779,7,COAST
11.694999694824219,1971.338134765625,-4.978234767913818,-0.07931605726480484,0.01302559208124876,7,COAST
11.795000076293945,1985.6954345703125,-5.04360818862915,-0.0797344520688057,0.01383531466126442,7,COAST
11.895000457763672,1999.9560546875,-5.108514785766602,-0.08100124448537827,0.01345841959118843,7,COAST
11.994999885559082,2014.061767578125,-5.174853801727295,-0.08328727632761002,0.015489171259105206,7,COAST
12.095000267028809,2028.15234375,-5.241698741912842,-0.08675629645586014,0.016443558037281036,7,COAST
12.194999694824219,2042.2611083984375,-5.315707206726074,-0.0866897776722908,0.01662079617381096,7,COAST
12.295000076293945,2056.18994140625,-5.388020038604736,-0.08879093080759048,0.015501393005251884,7,COAST
12.395000457763672,2070.10400390625,-5.463953495025635,-0.09112413227558136,0.016540655866265297,7,COAST
12.494999885559082,2083.945068359375,-5.538398742675781,-0.0915481224656105,0.01772908680140972,7,COAST
12.595000267028809,2097.66845703125,-5.613326072692871,-0.09373685717582703,0.01750347949564457,7,COAST
12.694999694824219,2111.33740234375,-5.686448097229004,-0.09558077156543732,0.019040361046791077,7,COAST
12.795000076293945,2124.75634765625,-5.759796619415283,-0.09716315567493439,0.021277623251080513,7,COAST
12.895000457763672,2138.104736328125,-5.83462381362915,-0.09843641519546509,0.023413456976413727,7,COAST
12.994999885559082,2151.377197265625,-5.913507461547852,-0.10056591778993607,0.02392732910811901,7,COAST
13.095000267028809,2164.40185546875,-5.995136737823486,-0.10199584811925888,0.025231562554836273,7,COAST
13.194999694824219,2177.485595703125,-6.077368259429932,-0.10414011031389236,0.024112755432724953,7,COAST
13.295000076293945,2190.4638671875,-6.162272930145264,-0.10413199663162231,0.023736756294965744,7,COAST
13.395000457763672,2203.250732421875,-6.249491214752197,-0.10725419968366623,0.02481420338153839,7,COAST
13.494999885559082,2215.982177734375,-6.335512161254883,-0.10945252329111099,0.024745797738432884,7,COAST
13.595000267028809,2228.599609375,-6.420314788818359,-0.10968220978975296,0.024372845888137817,7,COAST
13.694999694824219,2240.987060546875,-6.506519317626953,-0.10993854701519012,0.024407926946878433,7,COAST
13.795000076293945,2253.307861328125,-6.596226692199707,-0.11149467527866364,0.022945493459701538,7,COAST
13.895000457763672,2265.599609375,-6.685502529144287,-0.11331941932439804,0.021146483719348907,7,COAST
13.994999885559082,2277.83056640625,-6.779455184936523,-0.1168091893196106,0.021176354959607124,7,COAST
14.095000267028809,2289.95263671875,-6.875665187835693,-0.11860398203134537,0.02203276939690113,7,COAST
14.194999694824219,2301.7236328125,-6.973076820373535,-0.11776585876941681,0.02213410660624504,7,COAST
14.295000076293945,2313.604736328125,-7.0720534324646,-0.11916250735521317,0.023393576964735985,7,COAST
14.395000457763672,2325.39697265625,-7.174086570739746,-0.11945860832929611,0.020056964829564095,7,COAST
14.494999885559082,2337.03076171875,-7.273355007171631,-0.11849044263362885,0.019002847373485565,7,COAST
14.595000267028809,2348.685791015625,-7.375147819519043,-0.12102288007736206,0.01809476688504219,7,COAST
14.694999694824219,2359.993896484375,-7.479909420013428,-0.1215210035443306,0.018120864406228065,7,COAST
14.795000076293945,2371.272705078125,-7.584444522857666,-0.12342249602079391,0.018786029890179634,7,COAST
14.895000457763672,2382.45263671875,-7.69178581237793,-0.12768471240997314,0.017660023644566536,7,COAST
14.994999885559082,2393.424560546875,-7.80355167388916,-0.1284664124250412,0.017738131806254387,7,COAST
15.095000267028809,2404.35693359375,-7.917064666748047,-0.12877078354358673,0.018254099413752556,7,COAST
15.194999694824219,2415.18505859375,-8.034588813781738,-0.12903812527656555,0.016989409923553467,7,COAST
15.295000076293945,2425.83203125,-8.153898239135742,-0.1293976753950119,0.016749873757362366,7,COAST
15.395000457763672,2436.464111328125,-8.272578239440918,-0.12954291701316833,0.018488354980945587,7,COAST
15.494999885559082,2446.823974609375,-8.39411735534668,-0.13240033388137817,0.018642570823431015,7,COAST
15.595000267028809,2457.144287109375,-8.51844596862793,-0.1326591670513153,0.0180898979306221,7,COAST
15.694999694824219,2467.4248046875,-8.642295837402344,-0.1347365379333496,0.019241591915488243,7,COAST
15.795000076293945,2477.45751953125,-8.76931381225586,-0.13643069565296173,0.01848490722477436,7,COAST
15.895000457763672,2487.460205078125,-8.899601936340332,-0.13700905442237854,0.02024378627538681,7,COAST
15.994999885559082,2497.318359375,-9.03405475616455,-0.13844901323318481,0.021519605070352554,7,COAST
16.094999313354492,2507.030517578125,-9.171368598937988,-0.14145702123641968,0.021750444546341896,7,COAST
16.19499969482422,2516.701904296875,-9.311178207397461,-0.1422339230775833,0.022196438163518906,7,COAST
16.295000076293945,2526.0927734375,-9.453277587890625,-0.14410364627838135,0.02224368043243885,7,COAST
16.395000457763672,2535.548095703125,-9.598395347595215,-0.14690983295440674,0.02198459953069687,7,COAST
16.4950008392334,2544.82666015625,-9.744978904724121,-0.14987125992774963,0.022152598947286606,7,COAST
16.594999313354492,2553.932373046875,-9.895920753479004,-0.1520100235939026,0.023100441321730614,7,COAST
16.69499969482422,2562.9404296875,-10.048361778259277,-0.1576576679944992,0.022395852953195572,7,COAST
16.795000076293945,2571.80224609375,-10.20343017578125,-0.15963579714298248,0.020955409854650497,7,COAST
16.895000457763672,2580.5234375,-10.360384941101074,-0.16322414577007294,0.021677182987332344,7,COAST
16.9950008392334,2589.244384765625,-10.52464771270752,-0.16563032567501068,0.021845167502760887,7,COAST
17.094999313354492,2597.757568359375,-10.6896390914917,-0.16722515225410461,0.02227255515754223,7,COAST
17.19499969482422,2606.240234375,-10.860767364501953,-0.16985413432121277,0.021625343710184097,7,COAST
17.295000076293945,2614.49072265625,-11.034602165222168,-0.1709052473306656,0.023076435551047325,7,COAST
17.395000457763672,2622.75390625,-11.213229179382324,-0.17475013434886932,0.024426085874438286,7,COAST
17.4950008392334,2630.934814453125,-11.395873069763184,-0.17865364253520966,0.02824310027062893,7,COAST
17.594999313354492,2639.04443359375,-11.582348823547363,-0.1800135374069214,0.03065136820077896,7,COAST
17.69499969482422,2646.99072265625,-11.775333404541016,-0.18414361774921417,0.032043810933828354,7,COAST
17.795000076293945,2654.82861328125,-11.96981143951416,-0.18741540610790253,0.03299647942185402,7,COAST
17.895000457763672,2662.647216796875,-12.16811752319336,-0.18993955850601196,0.03398575261235237,7,COAST
17.9950008392334,2670.315185546875,-12.370746612548828,-0.19067977368831635,0.035182107239961624,7,COAST
18.094999313354492,2677.84375,-12.576370239257812,-0.1900506317615509,0.03651132434606552,7,COAST
18.19499969482422,2685.387939453125,-12.788585662841797,-0.19482538104057312,0.03521629050374031,7,COAST
18.295000076293945,2692.702880859375,-13.007325172424316,-0.19686365127563477,0.034950610250234604,7,COAST
18.395000457763672,2699.962646484375,-13.233226776123047,-0.19963666796684265,0.03644909709692001,7,COAST
18.4950008392334,2707.16943359375,-13.46291732788086,-0.20214293897151947,0.036925069987773895,7,COAST
18.594999313354492,2714.243408203125,-13.696803092956543,-0.2052108347415924,0.03839317709207535,7,COAST
18.69499969482422,2721.233642578125,-13.937159538269043,-0.2090914100408554,0.03884544223546982,7,COAST
18.795000076293945,2728.04541015625,-14.184920310974121,-0.21270158886909485,0.03918324038386345,7,COAST
18.895000457763672,2734.882080078125,-14.442037582397461,-0.21513941884040833,0.04143991321325302,7,COAST
18.9950008392334,2741.505615234375,-14.704756736755371,-0.21931186318397522,0.04322253167629242,7,COAST
19.094999313354492,2747.812255859375,-14.9729585647583,-0.22239477932453156,0.04444364830851555,7,COAST
19.19499969482422,2754.257568359375,-15.248689651489258,-0.22822979092597961,0.04502042382955551,7,COAST
19.295000076293945,2760.57861328125,-15.530652046203613,-0.23359327018260956,0.04647568240761757,7,COAST
19.395000457763672,2766.832275390625,-15.819296836853027,-0.23750761151313782,0.04795379936695099,7,COAST
19.4950008392334,2772.9970703125,-16.11655616760254,-0.24106809496879578,0.0489131361246109,7,COAST
19.594999313354492,2779.06884765625,-16.42093276977539,-0.24602128565311432,0.04957741126418114,7,COAST
19.69499969482422,2784.905517578125,-16.73564910888672,-0.2512510120868683,0.050943803042173386,7,COAST
19.795000076293945,2790.77880859375,-17.05686378479004,-0.253755658864975,0.051131028681993484,7,COAST
19.895000457763672,2796.443115234375,-17.39000701904297,-0.2578858733177185,0.052330419421195984,7,COAST
19.9950008392334,2802.078857421875,-17.731643676757812,-0.2625380754470825,0.05391683802008629,7,COAST
20.094999313354492,2807.7314453125,-18.081369400024414,-0.2654021084308624,0.055405162274837494,7,COAST
20.19499969482422,2813.1484375,-18.442405700683594,-0.27149227261543274,0.05895918607711792,7,COAST
20.295000076293945,2818.485595703125,-18.816871643066406,-0.2749943435192108,0.06087819114327431,7,COAST
20.395000457763672,2823.727783203125,-19.202829360961914,-0.2798037528991699,0.06366212666034698,7,COAST
20.4950008392334,2828.8515625,-19.601177215576172,-0.28656458854675293,0.06507990509271622,7,COAST
20.594999313354492,2833.954833984375,-20.010555267333984,-0.29077282547950745,0.06720446050167084,7,COAST
20.69499969482422,2838.8994140625,-20.433242797851562,-0.2954511344432831,0.06677398085594177,7,COAST
20.795000076293945,2843.857666015625,-20.866674423217773,-0.3005286753177643,0.0675094947218895,7,COAST
20.895000457763672,2848.480712890625,-21.31401824951172,-0.30529698729515076,0.06970739364624023,7,COAST
20.9950008392334,2853.0927734375,-21.77610969543457,-0.3104979395866394,0.07290340214967728,7,COAST
21.094999313354492,2857.58251953125,-22.251819610595703,-0.3151203989982605,0.07333189994096756,7,COAST
21.19499969482422,2862.113525390625,-22.74571990966797,-0.3220655024051666,0.07476174086332321,7,COAST
21.295000076293945,2866.420654296875,-23.255502700805664,-0.3297649919986725,0.07635612785816193,7,COAST
21.395000457763672,2870.572998046875,-23.781604766845703,-0.33662882447242737,0.07802825421094894,7,COAST
21.4950008392334,2874.78515625,-24.325345993041992,-0.34509024024009705,0.0802231878042221,7,COAST
21.594999313354492,2878.82080078125,-24.886829376220703,-0.3508704900741577,0.08189167827367783,7,COAST
21.69499969482422,2882.68701171875,-25.46876335144043,-0.35657936334609985,0.08551973104476929,7,COAST
21.795000076293945,2886.5654296875,-26.07404899597168,-0.36229875683784485,0.08934085816144943,7,COAST
21.895000457763672,2890.42138671875,-26.69813346862793,-0.3700190782546997,0.09299304336309433,7,COAST
21.9950008392334,2894.00048828125,-27.342193603515625,-0.37907204031944275,0.09726030379533768,7,COAST
22.094999313354492,2897.678466796875,-28.012041091918945,-0.3857778012752533,0.09973045438528061,7,COAST
22.19499969482422,2901.016357421875,-28.70306396484375,-0.39132580161094666,0.10328786075115204,7,COAST
22.295000076293945,2904.369384765625,-29.419424057006836,-0.40085843205451965,0.10980202257633209,7,COAST
22.395000457763672,2907.56787109375,-30.16551971435547,-0.40833690762519836,0.11449328809976578,7,COAST
22.4950008392334,2910.82666015625,-30.936372756958008,-0.415820449590683,0.11982543766498566,7,COAST
22.594999313354492,2913.912353515625,-31.737871170043945,-0.42677414417266846,0.12523268163204193,7,COAST
22.69499969482422,2916.91845703125,-32.569061279296875,-0.4357755780220032,0.13222022354602814,7,COAST
22.795000076293945,2919.88330078125,-33.4294548034668,-0.4431113004684448,0.1377972513437271,7,COAST
22.895000457763672,2922.707763671875,-34.326168060302734,-0.4522179067134857,0.14172665774822235,7,COAST
22.9950008392334,2925.303466796875,-35.2525520324707,-0.4607553780078888,0.14504772424697876,7,COAST
23.094999313354492,2927.82568359375,-36.216304779052734,-0.4687521457672119,0.15073132514953613,7,COAST
23.19499969482422,2930.375244140625,-37.21564483642578,-0.47869691252708435,0.16045686602592468,7,COAST
23.295000076293945,2932.6953125,-38.25430679321289,-0.4891713261604309,0.16874030232429504,7,COAST
23.395000457763672,2934.8779296875,-39.33445358276367,-0.49920380115509033,0.17665666341781616,7,COAST
23.4950008392334,2937.122314453125,-40.45554733276367,-0.511114776134491,0.18590380251407623,7,COAST
23.594999313354492,2939.15576171875,-41.62123107910156,-0.5230841636657715,0.19428136944770813,7,COAST
23.69499969482422,2941.1591796875,-42.830467224121094,-0.5340781211853027,0.20241843163967133,7,COAST
23.795000076293945,2943.002197265625,-44.08610916137695,-0.5448156595230103,0.21252216398715973,7,COAST
23.895000457763672,2944.95703125,-45.38815689086914,-0.554602324962616,0.22491352260112762,7,COAST
23.9950008392334,2946.711181640625,-46.74222183227539,-0.5665160417556763,0.23813582956790924,7,COAST
24.094999313354492,2948.165283203125,-48.14928436279297,-0.5788171887397766,0.25001874566078186,7,COAST
24.19499969482422,2949.73974609375,-49.60695266723633,-0.5899537801742554,0.2613998353481293,7,COAST
24.295000076293945,2951.18359375,-51.1241569519043,-0.6005547642707825,0.2762870192527771,7,COAST
24.395000457763672,2952.47998046875,-52.6984748840332,-0.6125656366348267,0.2872827649116516,7,COAST
24.4950008392334,2953.694580078125,-54.33029556274414,-0.6249130964279175,0.30290132761001587,7,COAST
24.594999313354492,2954.8271484375,-56.02511978149414,-0.6384731531143188,0.3192846477031708,7,COAST
24.69499969482422,2955.78369140625,-57.78408432006836,-0.6499293446540833,0.3372640609741211,7,COAST
24.795000076293945,2956.743896484375,-59.60749053955078,-0.6611534357070923,0.3555302321910858,7,COAST
24.895000457763672,2957.501220703125,-61.497276306152344,-0.6716057062149048,0.37635236978530884,7,COAST
24.9950008392334,2958.160888671875,-63.4525260925293,-0.6816982626914978,0.3970763683319092,7,COAST
25.094999313354492,2958.667724609375,-65.47967529296875,-0.6912828087806702,0.4197497069835663,7,COAST
25.19499969482422,2959.159423828125,-67.5744857788086,-0.6998750567436218,0.4418121576309204,7,COAST
25.295000076293945,2959.556884765625,-69.74019622802734,-0.7106324434280396,0.4642046391963959,7,COAST
25.395000457763672,2959.93408203125,-71.9795913696289,-0.7190322875976562,0.48808181285858154,31,APOGEE
25.4950008392334,2960.145751953125,-74.28915405273438,-0.7258564233779907,0.5138300061225891,63,DROGUE DESC
25.594999313354492,2960.1962890625,-76.67031860351562,-0.7319290637969971,0.5405372977256775,63,DROGUE DESC
25.69499969482422,2960.324951171875,-79.11888122558594,-0.7374736666679382,0.5695449709892273,63,DROGUE DESC
25.795000076293945,2960.11279296875,-81.63702392578125,-0.7408036589622498,0.5985799431800842,63,DROGUE DESC
25.895000457763672,2959.89794921875,-84.22411346435547,-0.7443928718566895,0.626859188079834,63,DROGUE DESC
25.9950008392334,2959.5791015625,-86.87629699707031,-0.7475886344909668,0.6583465933799744,63,DROGUE DESC
26.094999313354492,2959.2333984375,-89.58956909179688,-0.7499930262565613,0.6936331987380981,63,DROGUE DESC
26.19499969482422,2958.751953125,-92.3589096069336,-0.7483205795288086,0.7259708046913147,63,DROGUE DESC
26.295000076293945,2958.14697265625,-95.17945861816406,-0.7471532821655273,0.7591332793235779,63,DROGUE DESC
26.395000457763672,2957.41064453125,-98.04063415527344,-0.7440346479415894,0.7941754460334778,63,DROGUE DESC
26.4950008392334,2956.801513671875,-100.93624877929688,-0.7392387986183167,0.8282366394996643,63,DROGUE DESC
26.594999313354492,2955.896728515625,-103.85614013671875,-0.7336733341217041,0.8574234843254089,63,DROGUE DESC
26.69499969482422,2954.848388671875,-106.7873306274414,-0.724947988986969,0.8887719511985779,63,DROGUE DESC
26.795000076293945,2953.947509765625,-109.7162094116211,-0.7146540284156799,0.920333981513977,63,DROGUE DESC
26.895000457763672,2952.908447265625,-112.63055419921875,-0.7023171782493591,0.9500327706336975,63,DROGUE DESC
26.9950008392334,2951.762939453125,-115.50794982910156,-0.6883610486984253,0.9775869250297546,63,DROGUE DESC
27.094999313354492,2950.554443359375,-118.33122253417969,-0.6749708652496338,1.0060756206512451,63,DROGUE DESC
27.19499969482422,2949.175048828125,-121.08499145507812,-0.6597342491149902,1.033331274986267,63,DROGUE DESC
27.295000076293945,2947.725830078125,-123.74576568603516,-0.642173171043396,1.0612738132476807,63,DROGUE DESC
27.395000457763672,2946.19970703125,-126.29190826416016,-0.6270154714584351,1.0854421854019165,63,DROGUE DESC
27.4950008392334,2944.427490234375,-128.6993865966797,-0.6119720935821533,1.106518030166626,63,DROGUE DESC
27.594999313354492,2942.710205078125,-130.9466094970703,-0.5938138365745544,1.125241756439209,63,DROGUE DESC
27.69499969482422,2940.780517578125,-133.01495361328125,-0.5810210704803467,1.1429917812347412,63,DROGUE DESC
27.795000076293945,2938.66796875,-134.88217163085938,-0.5684064626693726,1.1579710245132446,63,DROGUE DESC
27.895000457763672,2936.52978515625,-136.5348358154297,-0.5556858777999878,1.17107355594635,63,DROGUE DESC
27.9950008392334,2934.174072265625,-137.95724487304688,-0.5448489189147949,1.1797579526901245,63,DROGUE DESC
28.094999313354492,2931.925048828125,-139.1405029296875,-0.534696638584137,1.1888771057128906,63,DROGUE DESC
28.19499969482422,2929.533935546875,-140.0791778564453,-0.5262330174446106,1.1942368745803833,63,DROGUE DESC
28.295000076293945,2927.08154296875,-140.7750244140625,-0.5205435156822205,1.1988060474395752,63,DROGUE DESC
28.395000457763672,2924.449462890625,-141.2366485595703,-0.5179773569107056,1.201704978942871,63,DROGUE DESC
28.4950008392334,2921.741943359375,-141.4784393310547,-0.5164577960968018,1.203378438949585,63,DROGUE DESC
28.594999313354492,2919.008056640625,-141.52386474609375,-0.5150312781333923,1.2049851417541504,63,DROGUE DESC
28.69499969482422,2916.10107421875,-141.39828491210938,-0.5158556699752808,1.2036514282226562,63,DROGUE DESC
28.795000076293945,2912.959716796875,-141.14076232910156,-0.5164597630500793,1.2027130126953125,63,DROGUE DESC
28.895000457763672,2909.765625,-140.7918701171875,-0.5196417570114136,1.199208378791809,63,DROGUE DESC
28.9950008392334,2906.518310546875,-140.39935302734375,-0.5214463472366333,1.1987435817718506,63,DROGUE DESC
29.094999313354492,2903.2451171875,-140.01609802246094,-0.5246004462242126,1.1973114013671875,63,DROGUE DESC
29.19499969482422,2899.911376953125,-139.69151306152344,-0.5291300415992737,1.194179892539978,63,DROGUE DESC
29.295000076293945,2896.45361328125,-139.47335815429688,-0.5302242040634155,1.191237211227417,63,DROGUE DESC
29.395000457763672,2892.99462890625,-139.40870666503906,-0.5306730270385742,1.1897649765014648,63,DROGUE DESC
29.4950008392334,2889.263671875,-139.5436553955078,-0.5287704467773438,1.1911863088607788,63,DROGUE DESC
29.594999313354492,2885.37158203125,-139.90174865722656,-0.5282008647918701,1.1953927278518677,63,DROGUE DESC
29.69499969482422,2881.545166015625,-140.50169372558594,-0.5246549844741821,1.1982390880584717,63,DROGUE DESC
29.795000076293945,2877.772216796875,-141.3472900390625,-0.5157097578048706,1.2065503597259521,63,DROGUE DESC
29.895000457763672,2873.69140625,-142.43017578125,-0.5047570466995239,1.2139997482299805,63,DROGUE DESC
29.9950008392334,2869.500732421875,-143.71961975097656,-0.4947333335876465,1.2244236469268799,63,DROGUE DESC
30.094999313354492,2865.3154296875,-145.17288208007812,-0.48176249861717224,1.2353863716125488,63,DROGUE DESC
30.19499969482422,2860.83740234375,-146.7393341064453,-0.46639883518218994,1.245889663696289,63,DROGUE DESC
30.295000076293945,2856.371337890625,-148.34312438964844,-0.4536750316619873,1.253358244895935,63,DROGUE DESC
30.395000457763672,2851.88427734375,-149.9167022705078,-0.4392092525959015,1.2608712911605835,63,DROGUE DESC
30.4950008392334,2847.211669921875,-151.38180541992188,-0.4266450107097626,1.2661139965057373,63,DROGUE DESC
30.594999313354492,2842.509521484375,-152.66212463378906,-0.4149029850959778,1.2702999114990234,63,DROGUE DESC
30.69499969482422,2837.610107421875,-153.7035369873047,-0.4046713709831238,1.2776293754577637,63,DROGUE DESC
30.795000076293945,2832.73583984375,-154.45462036132812,-0.39530280232429504,1.2818275690078735,63,DROGUE DESC
30.895000457763672,2827.894287109375,-154.89382934570312,-0.3904644846916199,1.2852461338043213,63,DROGUE DESC
30.9950008392334,2822.7470703125,-155.0174560546875,-0.387792706489563,1.2881416082382202,63,DROGUE DESC
31.094999313354492,2817.472412109375,-154.8502960205078,-0.3906087875366211,1.286339282989502,63,DROGUE DESC
31.19499969482422,2812.182861328125,-154.44552612304688,-0.3950157165527344,1.2841827869415283,63,DROGUE DESC
31.295000076293945,2806.76416015625,-153.87315368652344,-0.40148791670799255,1.2793318033218384,63,DROGUE DESC
31.395000457763672,2801.183837890625,-153.21853637695312,-0.406110554933548,1.277201533317566,63,DROGUE DESC
31.4950008392334,2795.616455078125,-152.58204650878906,-0.4129481911659241,1.2728993892669678,63,DROGUE DESC
31.594999313354492,2789.94140625,-152.06005859375,-0.4202433228492737,1.269765853881836,63,DROGUE DESC
31.69499969482422,2783.992431640625,-151.7433319091797,-0.4232845902442932,1.2675896883010864,63,DROGUE DESC
31.795000076293945,2778.217529296875,-151.69354248046875,-0.4250454306602478,1.2691106796264648,63,DROGUE DESC
31.895000457763672,2772.148193359375,-151.9464569091797,-0.42447927594184875,1.2740329504013062,63,DROGUE DESC
31.9950008392334,2766.0234375,-152.50656127929688,-0.4190298616886139,1.2787724733352661,63,DROGUE DESC
32.095001220703125,2759.798828125,-153.34071350097656,-0.4096498489379883,1.2827481031417847,63,DROGUE DESC
32.19499969482422,2753.549560546875,-154.37979125976562,-0.39972198009490967,1.2896422147750854,63,DROGUE DESC
32.29499816894531,2747.2216796875,-155.52749633789062,-0.3884977102279663,1.2949217557907104,63,DROGUE DESC
32.39500045776367,2740.819580078125,-156.67587280273438,-0.3773755729198456,1.298995852470398,63,DROGUE DESC
32.494998931884766,2734.21142578125,-157.71690368652344,-0.36599472165107727,1.305357813835144,63,DROGUE DESC
32.595001220703125,2727.4765625,-158.54833984375,-0.35533401370048523,1.309436559677124,63,DROGUE DESC
32.69499969482422,2720.88671875,-159.09425354003906,-0.34946224093437195,1.3106322288513184,63,DROGUE DESC
32.79499816894531,2714.118408203125,-159.31968688964844,-0.3472853899002075,1.3118962049484253,63,DROGUE DESC
32.89500045776367,2707.13525390625,-159.2359619140625,-0.34954479336738586,1.310876488685608,63,DROGUE DESC
32.994998931884766,2700.202880859375,-158.89031982421875,-0.3537183403968811,1.3075909614562988,63,DROGUE DESC
33.095001220703125,2693.079833984375,-158.37950134277344,-0.35983118414878845,1.3046393394470215,63,DROGUE DESC
33.19499969482422,2685.92724609375,-157.81614685058594,-0.3644084632396698,1.3018916845321655,63,DROGUE DESC
33.29499816894531,2678.434326171875,-157.32225036621094,-0.36917656660079956,1.3006696701049805,63,DROGUE DESC
33.39500045776367,2670.970703125,-157.00823974609375,-0.3732620179653168,1.2985384464263916,63,DROGUE DESC
33.494998931884766,2663.41845703125,-156.9539031982422,-0.3746470808982849,1.2968872785568237,63,DROGUE DESC
33.595001220703125,2655.858642578125,-157.19711303710938,-0.37352511286735535,1.2952494621276855,63,DROGUE DESC
33.69499969482422,2648.25244140625,-157.71986389160156,-0.36788350343704224,1.2960712909698486,63,DROGUE DESC
33.79499816894531,2640.595947265625,-158.46112060546875,-0.3615764379501343,1.298909068107605,63,DROGUE DESC
33.89500045776367,2632.821044921875,-159.3155975341797,-0.3547773063182831,1.304620623588562,63,DROGUE DESC
33.994998931884766,2624.953369140625,-160.15509033203125,-0.3453960418701172,1.3077789545059204,63,DROGUE DESC
34.095001220703125,2617.015380859375,-160.85719299316406,-0.3379199802875519,1.308187484741211,63,DROGUE DESC
34.19499969482422,2608.789306640625,-161.32957458496094,-0.33628788590431213,1.309206485748291,63,DROGUE DESC
34.29499816894531,2600.5126953125,-161.5192413330078,-0.33514416217803955,1.3111315965652466,63,DROGUE DESC
34.39500045776367,2592.30810546875,-161.430908203125,-0.33574581146240234,1.3117425441741943,63,DROGUE DESC
34.494998931884766,2583.86572265625,-161.1276397705078,-0.34000611305236816,1.3089035749435425,63,DROGUE DESC
34.595001220703125,2575.377197265625,-160.71072387695312,-0.3450643718242645,1.3076850175857544,63,DROGUE DESC
34.69499969482422,2566.6826171875,-160.30592346191406,-0.3499835431575775,1.3045172691345215,63,DROGUE DESC
34.79499816894531,2558.004638671875,-160.03741455078125,-0.3509179949760437,1.3052772283554077,63,DROGUE DESC
34.89500045776367,2549.14501953125,-159.98941040039062,-0.3527335226535797,1.3075122833251953,63,DROGUE DESC
34.994998931884766,2540.37158203125,-160.1961212158203,-0.3513549566268921,1.3069592714309692,63,DROGUE DESC
35.095001220703125,2531.402099609375,-160.63894653320312,-0.3467285633087158,1.3078182935714722,63,DROGUE DESC
35.19499969482422,2522.281494140625,-161.2352752685547,-0.34102168679237366,1.3101327419281006,63,DROGUE DESC
35.29499816894531,2513.07421875,-161.87307739257812,-0.33437782526016235,1.311916470527649,63,DROGUE DESC
35.39500045776367,2503.864501953125,-162.42604064941406,-0.3289758563041687,1.310465931892395,63,DROGUE DESC
35.494998931884766,2494.5859375,-162.7989044189453,-0.3247775435447693,1.312219500541687,63,DROGUE DESC
35.595001220703125,2485.109130859375,-162.93515014648438,-0.32357579469680786,1.3130053281784058,63,DROGUE DESC
35.69499969482422,2475.492431640625,-162.84434509277344,-0.3231945335865021,1.312660574913025,63,DROGUE DESC
35.79499816894531,2465.942138671875,-162.59266662597656,-0.32483991980552673,1.3111865520477295,63,DROGUE DESC
35.89500045776367,2456.373779296875,-162.2908477783203,-0.3263973295688629,1.3108116388320923,63,DROGUE DESC
35.994998931884766,2446.660888671875,-162.0569610595703,-0.3277320861816406,1.3076668977737427,63,DROGUE DESC
36.095001220703125,2436.974853515625,-161.9803466796875,-0.32962673902511597,1.3071520328521729,63,DROGUE DESC
36.19499969482422,2427.1640625,-162.11190795898438,-0.3291962742805481,1.3071722984313965,63,DROGUE DESC
36.29499816894531,2417.306884765625,-162.4393310546875,-0.3271714150905609,1.308568000793457,63,DROGUE DESC
36.39500045776367,2407.159912109375,-162.88970947265625,-0.32313990592956543,1.310468316078186,63,DROGUE DESC
36.494998931884766,2397.03369140625,-163.35699462890625,-0.3195655941963196,1.3111608028411865,63,DROGUE DESC
36.595001220703125,2386.7646484375,-163.7333526611328,-0.3141816556453705,1.315426230430603,63,DROGUE DESC
36.69499969482422,2376.48583984375,-163.94090270996094,-0.3117094933986664,1.317477822303772,63,DROGUE DESC
36.79499816894531,2365.878173828125,-163.9605255126953,-0.309806227684021,1.31661856174469,63,DROGUE DESC
36.89500045776367,2355.393310546875,-163.82431030273438,-0.30950063467025757,1.3159725666046143,63,DROGUE DESC
36.994998931884766,2344.670654296875,-163.6227264404297,-0.3121975362300873,1.314477801322937,63,DROGUE DESC
37.095001220703125,2333.96240234375,-163.4556121826172,-0.3153318464756012,1.3167271614074707,63,DROGUE DESC
37.19499969482422,2323.263916015625,-163.41387939453125,-0.31421035528182983,1.3171281814575195,63,DROGUE DESC
37.29499816894531,2312.471923828125,-163.53414916992188,-0.31392645835876465,1.3202685117721558,63,DROGUE DESC
37.39500045776367,2301.495849609375,-163.80239868164062,-0.3121171295642853,1.3209617137908936,63,DROGUE DESC
37.494998931884766,2290.4306640625,-164.1495819091797,-0.31188061833381653,1.3242619037628174,63,DROGUE DESC
37.595001220703125,2279.219970703125,-164.47921752929688,-0.3078865110874176,1.3264005184173584,63,DROGUE DESC
37.69499969482422,2268.0546875,-164.71009826660156,-0.30422869324684143,1.3284069299697876,63,DROGUE DESC
37.79499816894531,2256.66015625,-164.7953643798828,-0.30327868461608887,1.3285984992980957,63,DROGUE DESC
37.89500045776367,2245.1845703125,-164.74424743652344,-0.30422261357307434,1.3281790018081665,63,DROGUE DESC
37.994998931884766,2233.599609375,-164.61941528320312,-0.30492517352104187,1.3279584646224976,63,DROGUE DESC
38.095001220703125,2222.04443359375,-164.50308227539062,-0.30571553111076355,1.327414631843567,63,DROGUE DESC
38.19499969482422,2210.41650390625,-164.47508239746094,-0.30591896176338196,1.3271557092666626,63,DROGUE DESC
38.29499816894531,2198.611328125,-164.57284545898438,-0.3051597774028778,1.3263453245162964,63,DROGUE DESC
38.39500045776367,2186.851318359375,-164.78338623046875,-0.3027596175670624,1.3271185159683228,63,DROGUE DESC
38.494998931884766,2174.889404296875,-165.04733276367188,-0.30174770951271057,1.325256109237671,63,DROGUE DESC
38.595001220703125,2162.878173828125,-165.28414916992188,-0.2984342575073242,1.326281189918518,63,DROGUE DESC
38.69499969482422,2150.775634765625,-165.43057250976562,-0.2971503734588623,1.326930046081543,63,DROGUE DESC
38.79499816894531,2138.68017578125,-165.4639434814453,-0.29833176732063293,1.3269994258880615,63,DROGUE DESC
38.89500045776367,2126.330078125,-165.4109344482422,-0.29860612750053406,1.3269788026809692,63,DROGUE DESC
38.994998931884766,2114.029296875,-165.33164978027344,-0.30191609263420105,1.3271647691726685,63,DROGUE DESC
39.095001220703125,2101.573486328125,-165.2987823486328,-0.3028896749019623,1.329087257385254,63,DROGUE DESC
39.19499969482422,2089.06982421875,-165.35450744628906,-0.3038247525691986,1.3275471925735474,63,DROGUE DESC
39.29499816894531,2076.511474609375,-165.5013885498047,-0.3016998767852783,1.3284907341003418,63,DROGUE DESC
39.39500045776367,2063.83349609375,-165.69833374023438,-0.30170512199401855,1.3295332193374634,63,DROGUE DESC
39.494998931884766,2051.08642578125,-165.8824920654297,-0.30026477575302124,1.3313068151474,63,DROGUE DESC
39.595001220703125,2038.26025390625,-166.0021514892578,-0.29928627610206604,1.3296852111816406,63,DROGUE DESC
39.69499969482422,2025.287841796875,-166.0369415283203,-0.2992367148399353,1.3296844959259033,63,DROGUE DESC
39.79499816894531,2012.2244873046875,-166.00917053222656,-0.2991853654384613,1.3291994333267212,63,DROGUE DESC
39.89500045776367,1999.1641845703125,-165.97189331054688,-0.300835520029068,1.3267256021499634,63,DROGUE DESC
39.994998931884766,1986.0743408203125,-165.97564697265625,-0.30035436153411865,1.327864408493042,63,DROGUE DESC
40.095001220703125,1972.7852783203125,-166.04864501953125,-0.2982400357723236,1.326858639717102,63,DROGUE DESC
40.19499969482422,1959.3692626953125,-166.18272399902344,-0.2963140606880188,1.3262701034545898,63,DROGUE DESC
40.29499816894531,1945.9903564453125,-166.33680725097656,-0.2933385968208313,1.327873945236206,63,DROGUE DESC
40.39500045776367,1932.4993896484375,-166.45936584472656,-0.293235182762146,1.329193115234375,63,DROGUE DESC
40.494998931884766,1919.0064697265625,-166.52394104003906,-0.29256129264831543,1.3308576345443726,63,DROGUE DESC
40.595001220703125,1905.18896484375,-166.53228759765625,-0.2918691635131836,1.3302687406539917,63,DROGUE DESC
40.69499969482422,1891.4537353515625,-166.51788330078125,-0.29108524322509766,1.3303861618041992,63,DROGUE DESC
40.79499816894531,1877.64306640625,-166.52264404296875,-0.28778311610221863,1.3294343948364258,63,DROGUE DESC
40.89500045776367,1863.723388671875,-166.57403564453125,-0.288474977016449,1.3284664154052734,63,DROGUE DESC
40.994998931884766,1849.7152099609375,-166.67520141601562,-0.2893504798412323,1.3267110586166382,63,DROGUE DESC
41.095001220703125,1835.6378173828125,-166.79273986816406,-0.287906676530838,1.3265146017074585,63,DROGUE DESC
41.19499969482422,1821.348388671875,-166.89169311523438,-0.2873188257217407,1.3269929885864258,63,DROGUE DESC
41.29499816894531,1807.166748046875,-166.9503936767578,-0.28662699460983276,1.323935627937317,63,DROGUE DESC
41.39500045776367,1792.862060546875,-166.96705627441406,-0.28807133436203003,1.3237862586975098,63,DROGUE DESC
41.494998931884766,1778.5494384765625,-166.9700927734375,-0.288388192653656,1.326009750366211,63,DROGUE DESC
41.595001220703125,1764.0748291015625,-166.9936065673828,-0.29074153304100037,1.3258178234100342,63,DROGUE DESC
41.69499969482422,1749.55126953125,-167.04905700683594,-0.29054155945777893,1.3273600339889526,63,DROGUE DESC
41.79499816894531,1735.0325927734375,-167.13113403320312,-0.29190555214881897,1.3295398950576782,63,DROGUE DESC
41.89500045776367,1720.3243408203125,-167.223388671875,-0.29080185294151306,1.330057978630066,63,DROGUE DESC
41.994998931884766,1705.5081787109375,-167.29393005371094,-0.29146090149879456,1.3298500776290894,63,DROGUE DESC
42.095001220703125,1690.6978759765625,-167.33135986328125,-0.2915882170200348,1.3336540460586548,63,DROGUE DESC
42.19499969482422,1675.723876953125,-167.35154724121094,-0.29198527336120605,1.3331056833267212,63,DROGUE DESC
42.29499816894531,1660.6441650390625,-167.37289428710938,-0.2919175624847412,1.3323795795440674,63,DROGUE DESC
42.39500045776367,1645.6669921875,-167.41183471679688,-0.29390543699264526,1.3315216302871704,63,DROGUE DESC
42.494998931884766,1630.51220703125,-167.4776153564453,-0.2922810912132263,1.3321880102157593,63,DROGUE DESC
42.595001220703125,1615.132080078125,-167.5556640625,-0.291022390127182,1.3311982154846191,63,DROGUE DESC
42.69499969482422,1599.86328125,-167.61924743652344,-0.2912122309207916,1.3325577974319458,63,DROGUE DESC
42.79499816894531,1584.439697265625,-167.6634521484375,-0.29021525382995605,1.3318995237350464,63,DROGUE DESC
42.89500045776367,1569.0010986328125,-167.69100952148438,-0.2889103293418884,1.333418846130371,63,DROGUE DESC
42.994998931884766,1553.492919921875,-167.712890625,-0.2896641194820404,1.3331612348556519,63,DROGUE DESC
43.095001220703125,1537.884033203125,-167.7487335205078,-0.29005706310272217,1.332533597946167,63,DROGUE DESC
43.19499969482422,1522.224853515625,-167.80551147460938,-0.2909966707229614,1.3303014039993286,63,DROGUE DESC
43.29499816894531,1506.5771484375,-167.8705596923828,-0.2908981144428253,1.332492709159851,63,DROGUE DESC
43.39500045776367,1490.805419921875,-167.9248809814453,-0.29024645686149597,1.330662488937378,63,DROGUE DESC
43.494998931884766,1474.9716796875,-167.96676635742188,-0.2885507345199585,1.332437515258789,63,DROGUE DESC
43.595001220703125,1459.11962890625,-167.99569702148438,-0.28850361704826355,1.3334603309631348,63,DROGUE DESC
43.69499969482422,1443.0687255859375,-168.02468872070312,-0.2892756462097168,1.3329960107803345,63,DROGUE DESC
43.79499816894531,1426.856201171875,-168.06178283691406,-0.287645161151886,1.332432746887207,63,DROGUE DESC
43.89500045776367,1410.721435546875,-168.11209106445312,-0.2871561050415039,1.33426034450531,63,DROGUE DESC
43.994998931884766,1394.556640625,-168.1641845703125,-0.28493550419807434,1.3347783088684082,63,DROGUE DESC
44.095001220703125,1378.271484375,-168.2113800048828,-0.2813152074813843,1.3350557088851929,63,DROGUE DESC
44.19499969482422,1361.8857421875,-168.24581909179688,-0.2814193069934845,1.3310304880142212,63,DROGUE DESC
44.29499816894531,1345.4017333984375,-168.27659606933594,-0.27944445610046387,1.3312424421310425,63,DROGUE DESC
44.39500045776367,1328.8487548828125,-168.3086700439453,-0.27978649735450745,1.3305811882019043,63,DROGUE DESC
44.494998931884766,1312.3062744140625,-168.34730529785156,-0.27931782603263855,1.3321800231933594,63,DROGUE DESC
44.595001220703125,1295.6162109375,-168.3934783935547,-0.28068238496780396,1.3316819667816162,63,DROGUE DESC
44.69499969482422,1278.958984375,-168.43812561035156,-0.2800524830818176,1.3305052518844604,63,DROGUE DESC
44.79499816894531,1262.122314453125,-168.47735595703125,-0.28111323714256287,1.3306208848953247,63,DROGUE DESC
44.89500045776367,1245.2999267578125,-168.5060577392578,-0.28053128719329834,1.3308062553405762,63,DROGUE DESC
44.994998931884766,1228.4173583984375,-168.53524780273438,-0.2778662145137787,1.3303923606872559,63,DROGUE DESC
45.095001220703125,1211.4595947265625,-168.57235717773438,-0.27508458495140076,1.329195499420166,63,DROGUE DESC
45.19499969482422,1194.426025390625,-168.61363220214844,-0.2752748131752014,1.3316155672073364,63,DROGUE DESC
45.29499816894531,1177.2454833984375,-168.65318298339844,-0.2743101418018341,1.3296881914138794,63,DROGUE DESC
45.39500045776367,1159.8607177734375,-168.69049072265625,-0.27280503511428833,1.3300790786743164,63,DROGUE DESC
45.494998931884766,1142.5487060546875,-168.71951293945312,-0.2705557346343994,1.3282710313796997,63,DROGUE DESC
45.595001220703125,1125.22314453125,-168.74903869628906,-0.2698218524456024,1.32966148853302,63,DROGUE DESC
45.69499969482422,1107.73388671875,-168.7827911376953,-0.2706155776977539,1.3314428329467773,63,DROGUE DESC
45.79499816894531,1090.2108154296875,-168.8225860595703,-0.26833996176719666,1.3305909633636475,63,DROGUE DESC
45.89500045776367,1072.732666015625,-168.85910034179688,-0.26881712675094604,1.3309204578399658,63,DROGUE DESC
45.994998931884766,1055.124267578125,-168.89340209960938,-0.26870083808898926,1.3321104049682617,63,DROGUE DESC
46.095001220703125,1037.450439453125,-168.9246826171875,-0.26855507493019104,1.3331233263015747,63,DROGUE DESC
46.19499969482422,1019.8170776367188,-168.95455932617188,-0.2703583538532257,1.3325834274291992,63,DROGUE DESC
46.29499816894531,1001.963623046875,-168.9881591796875,-0.27096855640411377,1.3339580297470093,63,DROGUE DESC
46.39500045776367,984.0720825195312,-169.02259826660156,-0.26949796080589294,1.3362606763839722,63,DROGUE DESC
46.494998931884766,966.1342163085938,-169.05873107910156,-0.2707076668739319,1.3365134000778198,63,DROGUE DESC
46.595001220703125,948.141357421875,-169.0917510986328,-0.2719956636428833,1.3367900848388672,63,DROGUE DESC
46.69499969482422,929.9834594726562,-169.1218719482422,-0.27262720465660095,1.3358170986175537,63,DROGUE DESC
46.79499816894531,911.8365478515625,-169.15097045898438,-0.27496787905693054,1.337077260017395,63,DROGUE DESC
46.89500045776367,893.6535034179688,-169.18394470214844,-0.27455273270606995,1.3370742797851562,63,DROGUE DESC
46.994998931884766,875.4195556640625,-169.2172088623047,-0.27584996819496155,1.3377091884613037,63,DROGUE DESC
47.095001220703125,857.057861328125,-169.24830627441406,-0.2772355079650879,1.3368244171142578,63,DROGUE DESC
47.19499969482422,838.5677490234375,-169.27377319335938,-0.28039446473121643,1.3399014472961426,63,DROGUE DESC
47.29499816894531,820.15478515625,-169.30320739746094,-0.2796289622783661,1.3403419256210327,63,DROGUE DESC
47.39500045776367,801.6438598632812,-169.33172607421875,-0.2809927463531494,1.3394585847854614,63,DROGUE DESC
47.494998931884766,782.92333984375,-169.36317443847656,-0.28175848722457886,1.341004729270935,63,DROGUE DESC
47.595001220703125,764.267822265625,-169.3950653076172,-0.2815747857093811,1.340256929397583,63,DROGUE DESC
47.69499969482422,745.63818359375,-169.42440795898438,-0.2846681475639343,1.3417433500289917,63,DROGUE DESC
47.79499816894531,726.8353881835938,-169.45310974121094,-0.2826898992061615,1.3407171964645386,63,DROGUE DESC
47.89500045776367,708.0465698242188,-169.48150634765625,-0.2845838665962219,1.339285969734192,63,DROGUE DESC
47.994998931884766,689.1150512695312,-169.51258850097656,-0.2821750044822693,1.33871591091156,63,DROGUE DESC
48.095001220703125,670.2133178710938,-169.5399169921875,-0.2804735600948334,1.3399757146835327,63,DROGUE DESC
48.19499969482422,651.2904663085938,-169.5677032470703,-0.2810131013393402,1.3407775163650513,63,DROGUE DESC
48.29499816894531,632.1712646484375,-169.5939483642578,-0.2799132466316223,1.3393105268478394,63,DROGUE DESC
48.39500045776367,612.9698486328125,-169.62220764160156,-0.2809283435344696,1.3381578922271729,63,DROGUE DESC
48.494998931884766,593.9178466796875,-169.6520538330078,-0.2822502553462982,1.3386180400848389,63,DROGUE DESC
48.595001220703125,574.7217407226562,-169.67918395996094,-0.2820720970630646,1.3388944864273071,63,DROGUE DESC
48.69499969482422,555.459716796875,-169.7031707763672,-0.2792450487613678,1.337105393409729,63,DROGUE DESC
48.79499816894531,536.1151123046875,-169.7276611328125,-0.27887749671936035,1.3366929292678833,63,DROGUE DESC
48.89500045776367,516.6463012695312,-169.75454711914062,-0.27924853563308716,1.3341244459152222,63,DROGUE DESC
48.994998931884766,497.21368408203125,-169.7848358154297,-0.2814546525478363,1.3346240520477295,63,DROGUE DESC
49.095001220703125,477.6130676269531,-169.8103790283203,-0.28138023614883423,1.3357293605804443,63,DROGUE DESC
49.19499969482422,457.9894104003906,-169.83609008789062,-0.2821587324142456,1.3354703187942505,63,DROGUE DESC
49.29499816894531,438.43585205078125,-169.85850524902344,-0.283346027135849,1.3339093923568726,63,DROGUE DESC
49.39500045776367,418.8316345214844,-169.88511657714844,-0.28369054198265076,1.3349597454071045,63,DROGUE DESC
49.494998931884766,399.1404724121094,-169.9116973876953,-0.2839623987674713,1.334861159324646,63,DROGUE DESC
49.595001220703125,379.3992614746094,-169.9390869140625,-0.2841011583805084,1.334031105041504,63,DROGUE DESC
49.69499969482422,359.4581298828125,-169.96507263183594,-0.28524065017700195,1.3328685760498047,63,DROGUE DESC
49.79499816894531,339.5780944824219,-169.9890594482422,-0.28618159890174866,1.333381175994873,63,DROGUE DESC
49.89500045776367,319.6298522949219,-170.01104736328125,-0.2887985408306122,1.3306801319122314,63,DROGUE DESC
49.994998931884766,299.588623046875,-170.03836059570312,-0.2881488800048828,1.3323062658309937,127,DROGUE DESC
50.095001220703125,279.3960266113281,-170.0650634765625,-0.28800010681152344,1.335399866104126,255,MAIN DESC
50.19499969482422,259.28857421875,-170.08848571777344,-0.28764984011650085,1.334620714187622,255,MAIN DESC
50.29499816894531,239.09947204589844,-170.1107177734375,-0.28550830483436584,1.3368241786956787,255,MAIN DESC
50.39500045776367,218.83743286132812,-170.13394165039062,-0.28800126910209656,1.3375085592269897,255,MAIN DESC
50.494998931884766,198.5850830078125,-170.15721130371094,-0.28807365894317627,1.333970546722412,255,MAIN DESC
50.595001220703125,178.25022888183594,-170.18174743652344,-0.2875705063343048,1.3334543704986572,255,MAIN DESC
50.69499969482422,157.8113250732422,-170.20553588867188,-0.28681373596191406,1.3340046405792236,255,MAIN DESC
50.79499816894531,137.35104370117188,-170.22776794433594,-0.29171931743621826,1.334177851676941,255,MAIN DESC
50.89500045776367,116.81326293945312,-170.24899291992188,-0.2920660972595215,1.334242343902588,255,MAIN DESC
50.994998931884766,96.23054504394531,-170.26890563964844,-0.29063424468040466,1.3333357572555542,255,MAIN DESC
51.095001220703125,75.59613800048828,-170.2919921875,-0.29178276658058167,1.330404281616211,255,MAIN DESC
51.19499969482422,54.9351692199707,-170.3162841796875,-0.29155534505844116,1.330304741859436,255,MAIN DESC
51.29499816894531,34.26939010620117,-170.33685302734375,-0.2917475700378418,1.330427885055542,255,MAIN DESC
51.39500045776367,13.680398941040039,-170.35626220703125,-0.2914814352989197,1.3314454555511475,255,MAIN DESC
51.45500183105469,1.2636399269104004,-170.36874389648438,-0.2928793132305145,1.3317575454711914,255,MAIN DESC
